[
  {
    "id": "1",
    "displayName": "Mumbai, Maharashtra",
    "city": "Mumbai",
    "state": "Maharashtra",
    "country": "India",
    "coordinates": { "lat": 19.0760, "lng": 72.8777 }
  },
  {
    "id": "2",
    "displayName": "Delhi, Delhi",
    "city": "Delhi",
    "state": "Delhi",
    "country": "India",
    "coordinates": { "lat": 28.6139, "lng": 77.2090 }
  },
  {
    "id": "3",
    "displayName": "Bangalore, Karnataka",
    "city": "Bangalore",
    "state": "Karnataka",
    "country": "India",
    "coordinates": { "lat": 12.9716, "lng": 77.5946 }
  },
  {
    "id": "4",
    "displayName": "Hyderabad, Telangana",
    "city": "Hyderabad",
    "state": "Telangana",
    "country": "India",
    "coordinates": { "lat": 17.3850, "lng": 78.4867 }
  },
  {
    "id": "5",
    "displayName": "Chennai, Tamil Nadu",
    "city": "Chennai",
    "state": "Tamil Nadu",
    "country": "India",
    "coordinates": { "lat": 13.0827, "lng": 80.2707 }
  },
  {
    "id": "6",
    "displayName": "Pune, Maharashtra",
    "city": "Pune",
    "state": "Maharashtra",
    "country": "India",
    "coordinates": { "lat": 18.5204, "lng": 73.8567 }
  },
  {
    "id": "7",
    "displayName": "Kolkata, West Bengal",
    "city": "Kolkata",
    "state": "West Bengal",
    "country": "India",
    "coordinates": { "lat": 22.5726, "lng": 88.3639 }
  },
  {
    "id": "8",
    "displayName": "Ahmedabad, Gujarat",
    "city": "Ahmedabad",
    "state": "Gujarat",
    "country": "India",
    "coordinates": { "lat": 23.0225, "lng": 72.5714 }
  }
]


